{"type":"FeatureCollection","totalFeatures":0,"features":[{"type":"Feature","id":"POI_VHAMN_PT.1","geometry":{"type":"Point","coordinates":[12.994324148024686,55.61125318098888]},"geometry_name":"the_geom","properties":{"gid":1,"id":1,"namn":"Hållbar utveckling i Malmö och omvärlden","urlvideo":null,"urlsound":"01_Punkt01_VO.mp3","urltext":"vh_1.txt","picture":"vh-popup-01.png","till_bild":"1.jpg","till_misc":"Cykelställ 50 meter.","till_park":"Inom 25 meter.","till_hcp":">200 meter.","till_buss":"Inom 25 meter. Orkanen, linje 3, 8."}},{"type":"Feature","id":"POI_VHAMN_PT.2","geometry":{"type":"Point","coordinates":[12.994886017540896,55.6107366745369]},"geometry_name":"the_geom","properties":{"gid":2,"id":2,"namn":"Lärande för hållbar utveckling","urlvideo":null,"urlsound":"02_Punkt02_VO.mp3","urltext":"vh_2.txt","picture":"vh-popup-02.png","till_bild":"2.jpg","till_misc":"Cykelställ inom 25 meter.","till_park":"Inom 25 meter.","till_hcp":">200 meter.","till_buss":"Inom 25 meter. Orkanen, linje 3, 8."}},{"type":"Feature","id":"POI_VHAMN_PT.3","geometry":{"type":"Point","coordinates":[12.990933982918163,55.61141146903547]},"geometry_name":"the_geom","properties":{"gid":3,"id":27,"namn":"Varvsstaden","urlvideo":null,"urlsound":"27_Punkt27_VO.mp3","urltext":"vh_27.txt","picture":"vh-popup-27.png","till_bild":"27.jpg","till_misc":"Information saknas","till_park":"Info saknas","till_hcp":"Info saknas","till_buss":"Information saknas"}},{"type":"Feature","id":"POI_VHAMN_PT.4","geometry":{"type":"Point","coordinates":[12.980800745068855,55.61163938658942]},"geometry_name":"the_geom","properties":{"gid":4,"id":26,"namn":"Masthusen","urlvideo":null,"urlsound":"26_Punkt26_VO.mp3","urltext":"vh_26.txt","picture":"vh-popup-26.png","till_bild":"26.jpg","till_misc":"Information saknas","till_park":"Info saknas","till_hcp":"Info saknas","till_buss":"Information saknas"}},{"type":"Feature","id":"POI_VHAMN_PT.5","geometry":{"type":"Point","coordinates":[12.97799095415692,55.608566347767095]},"geometry_name":"the_geom","properties":{"gid":5,"id":25,"namn":"Kockum Fritid","urlvideo":null,"urlsound":"25_Punkt25_VO.mp3","urltext":"vh_25.txt","picture":"vh-popup-25.png","till_bild":"25.jpg","till_misc":"Cykelställ inom 25 meter.","till_park":"Inom 25 meter.","till_hcp":">200 meter.","till_buss":"Inom 25 meter. Kockum fritid, linje 2, 3."}},{"type":"Feature","id":"POI_VHAMN_PT.6","geometry":{"type":"Point","coordinates":[12.974964996441125,55.60963608555717]},"geometry_name":"the_geom","properties":{"gid":6,"id":24,"namn":"Kretslopp","urlvideo":null,"urlsound":"24_Punkt24_VO.mp3","urltext":"vh_24.txt","picture":"vh-popup-24.png","till_bild":"24.jpg","till_misc":"Cykelställ inom 25 meter, sittmöjlighet finns.","till_park":"Inom 25 meter.","till_hcp":">200 meter.","till_buss":">200 meter. Turning Torso, linje 2."}},{"type":"Feature","id":"POI_VHAMN_PT.7","geometry":{"type":"Point","coordinates":[12.974400215409613,55.61005026717508]},"geometry_name":"the_geom","properties":{"gid":7,"id":23,"namn":"Sol, vind och vatten","urlvideo":null,"urlsound":"23_Punkt23_VO.mp3","urltext":"vh_23.txt","picture":"vh-popup-23.png","till_bild":"23.jpg","till_misc":"Cykelställ inom 25 meter, sittmöjlighet finns.","till_park":"Inom 25 meter.","till_hcp":">200 meter.","till_buss":">200 meter. Turning Torso, linje 2."}},{"type":"Feature","id":"POI_VHAMN_PT.8","geometry":{"type":"Point","coordinates":[12.973486303991177,55.60990203869506]},"geometry_name":"the_geom","properties":{"gid":8,"id":22,"namn":"Rättvist, ekologiskt och nära","urlvideo":null,"urlsound":"22_Punkt22_VO.mp3","urltext":"vh_22.txt","picture":"vh-popup-22.png","till_bild":"22.jpg","till_misc":"Cykelställ 150 meter, sittmöjlighet finns.","till_park":">200 meter.","till_hcp":">200 meter.","till_buss":">200 meter. Turning Torso, linje 2."}},{"type":"Feature","id":"POI_VHAMN_PT.9","geometry":{"type":"Point","coordinates":[12.97388565801702,55.61098310719001]},"geometry_name":"the_geom","properties":{"gid":9,"id":21,"namn":"Öppet dagvattensystem","urlvideo":null,"urlsound":"21_Punkt21_VO.mp3","urltext":"vh_21.txt","picture":"vh-popup-21.png","till_bild":"21.jpg","till_misc":"Cykelställ >200 meter.","till_park":">200 meter.","till_hcp":">200 meter.","till_buss":">200 meter. Turning Torso, linje 2."}},{"type":"Feature","id":"POI_VHAMN_PT.12","geometry":{"type":"Point","coordinates":[12.972369221753405,55.612879957469204]},"geometry_name":"the_geom","properties":{"gid":12,"id":18,"namn":"100% lokalt förnybar energi","urlvideo":null,"urlsound":"18_Punkt18_VO.mp3","urltext":"vh_18.txt","picture":"vh-popup-18.png","till_bild":"18.jpg","till_misc":"Cykelställ >200 meter, sittmöjlighet finns.","till_park":">200 meter.","till_hcp":">200 meter.","till_buss":"150 meter. Turning Torso, linje 2."}},{"type":"Feature","id":"POI_VHAMN_PT.13","geometry":{"type":"Point","coordinates":[12.973570089461004,55.61080112613234]},"geometry_name":"the_geom","properties":{"gid":13,"id":17,"namn":"Energisnåla hus","urlvideo":null,"urlsound":"17_Punkt17_VO.mp3","urltext":"vh_17.txt","picture":"vh-popup-17.png","till_bild":"17.jpg","till_misc":"Cykelställ >200 meter.","till_park":"150 meter.","till_hcp":">200 meter.","till_buss":"200 meter. Turning Torso, linje 2."}},{"type":"Feature","id":"POI_VHAMN_PT.14","geometry":{"type":"Point","coordinates":[12.973765160986089,55.61138689971545]},"geometry_name":"the_geom","properties":{"gid":14,"id":16,"namn":"Arkitektur","urlvideo":null,"urlsound":"16_Punkt16_VO.mp3","urltext":"vh_16.txt","picture":"vh-popup-16.png","till_bild":"16.jpg","till_misc":"Cykelställ >200 meter.","till_park":"150 meter.","till_hcp":">200 meter.","till_buss":"150 meter. Turning Torso, linje 2."}},{"type":"Feature","id":"POI_VHAMN_PT.15","geometry":{"type":"Point","coordinates":[12.974893624613797,55.61114631849194]},"geometry_name":"the_geom","properties":{"gid":15,"id":15,"namn":"Skanskas trähus","urlvideo":null,"urlsound":"15_Punkt15_VO.mp3","urltext":"vh_15.txt","picture":"vh-popup-15.png","till_bild":"15.jpg","till_misc":"Cykelställ >200 meter.","till_park":"Inom 25 meter.","till_hcp":">200 meter.","till_buss":"100 meter. Turning Torso, linje 2."}},{"type":"Feature","id":"POI_VHAMN_PT.17","geometry":{"type":"Point","coordinates":[12.975392592163388,55.613347216059665]},"geometry_name":"the_geom","properties":{"gid":17,"id":13,"namn":"Marksanering","urlvideo":null,"urlsound":"13_Punkt13_VO.mp3","urltext":"vh_13.txt","picture":"vh-popup-13.png","till_bild":"13.jpg","till_misc":"Cykelställ inom 25 meter, sittmöjlighet finns.","till_park":"Inom 25 meter.","till_hcp":">200 meter.","till_buss":"50 meter. Turning Torso, linje 2."}},{"type":"Feature","id":"POI_VHAMN_PT.18","geometry":{"type":"Point","coordinates":[12.977324276693489,55.61235408339226]},"geometry_name":"the_geom","properties":{"gid":18,"id":12,"namn":"Kollektivtrafik","urlvideo":null,"urlsound":"12_Punkt12_VO.mp3","urltext":"vh_12.txt","picture":"vh-popup-12.png","till_bild":"12.jpg","till_misc":"Cykelställ inom 25 meter, sittmöjlighet finns.","till_park":"Inom 25 meter.","till_hcp":">200 meter.","till_buss":"Inom 25 meter. Turning Torso, linje 2."}},{"type":"Feature","id":"POI_VHAMN_PT.22","geometry":{"type":"Point","coordinates":[12.977449154231536,55.616779841741284]},"geometry_name":"the_geom","properties":{"gid":22,"id":8,"namn":"Det goda samtalet","urlvideo":null,"urlsound":"08_Punkt08_VO.mp3","urltext":"vh_8.txt","picture":"vh-popup-08.png","till_bild":"8.jpg","till_misc":"Cykelställ 200 meter.","till_park":"Inom 25 meter.","till_hcp":">200 meter.","till_buss":"150 meter. Scaniabadet, linje 2."}},{"type":"Feature","id":"POI_VHAMN_PT.24","geometry":{"type":"Point","coordinates":[12.982627866495234,55.616007550366064]},"geometry_name":"the_geom","properties":{"gid":24,"id":6,"namn":"Fullriggaren och Kappseglaren","urlvideo":null,"urlsound":"06_Punkt06_VO.mp3","urltext":"vh_6.txt","picture":"vh-popup-06.png","till_bild":"6.jpg","till_misc":"Information saknas","till_park":"Info saknas","till_hcp":"Info saknas","till_buss":"Information saknas"}},{"type":"Feature","id":"POI_VHAMN_PT.26","geometry":{"type":"Point","coordinates":[12.990339888221255,55.614874406797895]},"geometry_name":"the_geom","properties":{"gid":26,"id":4,"namn":"Ekonomisk hållbarhet","urlvideo":null,"urlsound":"04_Punkt04_VO.mp3","urltext":"vh_4.txt","picture":"vh-popup-04.png","till_bild":"4.jpg","till_misc":"Cykelställ inom 25 meter, trappa finns med 2 trappsteg, sittmöjlighet finns.","till_park":"Inom 25 meter.","till_hcp":"Inom 25 meter.","till_buss":"Dockan, linje 3, 8."}},{"type":"Feature","id":"POI_VHAMN_PT.27","geometry":{"type":"Point","coordinates":[12.99303012835824,55.612709315178655]},"geometry_name":"the_geom","properties":{"gid":27,"id":3,"namn":"Västra Hamnens historia","urlvideo":null,"urlsound":"03_Punkt03_VO.mp3","urltext":"vh_3.txt","picture":"vh-popup-03.png","till_bild":"3.jpg","till_misc":"Cykelställ inom 25 meter.","till_park":"Inom 25 meter.","till_hcp":"Inom 25 meter.","till_buss":"Dockan, linje 3, 8."}},{"type":"Feature","id":"POI_VHAMN_PT.25","geometry":{"type":"Point","coordinates":[12.984107366228967,55.61339447625281]},"geometry_name":"the_geom","properties":{"gid":25,"id":5,"namn":"Social Hållbarhet","urlvideo":"http://www.youtube.com/embed/7Wku164Ywtg","urlsound":"05_Punkt05_VO.mp3","urltext":"vh_5.txt","picture":"vh-popup-05.png","till_bild":"5.jpg","till_misc":"Cykelställ inom 25 meter, trappa finns med 5 trappsteg, sittmöjlighet finns.","till_park":"Inom 25 meter.","till_hcp":">200 meter.","till_buss":"200 meter. Kockums, linje 3."}},{"type":"Feature","id":"POI_VHAMN_PT.23","geometry":{"type":"Point","coordinates":[12.980453255717837,55.61465283858538]},"geometry_name":"the_geom","properties":{"gid":23,"id":7,"namn":"Varvsparken och ekologisk lekplats","urlvideo":"http://www.youtube.com/embed/LxWRgvBgGZY","urlsound":"07_Punkt07_VO.mp3","urltext":"vh_7.txt","picture":"vh-popup-07.png","till_bild":"7.jpg","till_misc":"Cykelställ inom 25 meter, sittmöjlighet finns. Handikappanpassad lekplats.","till_park":"Inom 25 meter.","till_hcp":"Inom 25 meter.","till_buss":"150 meter. Scaniabadet, linje 2."}},{"type":"Feature","id":"POI_VHAMN_PT.21","geometry":{"type":"Point","coordinates":[12.974512308748652,55.617514137464994]},"geometry_name":"the_geom","properties":{"gid":21,"id":9,"namn":"Havet","urlvideo":"http://www.youtube.com/embed/8jPGRQnqgTg","urlsound":"09_Punkt09_VO.mp3","urltext":"vh_9.txt","picture":"vh-popup-09.png","till_bild":"9.jpg","till_misc":"Cykelställ inom 25 meter, trappa finns med 2 trappsteg, sittmöjlighet finns.","till_park":"Inom 25 meter.","till_hcp":"Inom 25 meter.","till_buss":"150 meter. Scaniabadet, linje 2."}},{"type":"Feature","id":"POI_VHAMN_PT.20","geometry":{"type":"Point","coordinates":[12.976260964837694,55.614982025192226]},"geometry_name":"the_geom","properties":{"gid":20,"id":10,"namn":"Cykling","urlvideo":"http://www.youtube.com/embed/v6vAXIXSwh4","urlsound":"10_Punkt10_VO.mp3","urltext":"vh_10.txt","picture":"vh-popup-10.png","till_bild":"10.jpg","till_misc":"Cykelställ inom 25 meter.","till_park":"Inom 25 meter.","till_hcp":">200 meter.","till_buss":"Inom 25 meter. Turning Torso, linje 2."}},{"type":"Feature","id":"POI_VHAMN_PT.19","geometry":{"type":"Point","coordinates":[12.976121966450448,55.61306831845022]},"geometry_name":"the_geom","properties":{"gid":19,"id":11,"namn":"Turning Torso","urlvideo":"http://www.youtube.com/embed/VTHpQbkRj98","urlsound":"11_Punkt11_VO.mp3","urltext":"vh_11.txt","picture":"vh-popup-11.png","till_bild":"11.jpg","till_misc":"Cykelställ 75 meter.","till_park":"Inom 25 meter.","till_hcp":">200 meter.","till_buss":"Inom 25 meter. Turning Torso, linje 2."}},{"type":"Feature","id":"POI_VHAMN_PT.16","geometry":{"type":"Point","coordinates":[12.975852677753542,55.612016488098675]},"geometry_name":"the_geom","properties":{"gid":16,"id":14,"namn":"Parkerna","urlvideo":"http://www.youtube.com/embed/C8v33ErJZDE","urlsound":"14_Punkt14_VO.mp3","urltext":"vh_14.txt","picture":"vh-popup-14.png","till_bild":"14.jpg","till_misc":"Cykelställ >200 meter, sittmöjlighet finns.","till_park":"Inom 25 meter.","till_hcp":">200 meter.","till_buss":"100 meter. Turning Torso, linje 2."}},{"type":"Feature","id":"POI_VHAMN_PT.11","geometry":{"type":"Point","coordinates":[12.972314008827283,55.6114023947808]},"geometry_name":"the_geom","properties":{"gid":11,"id":19,"namn":"Konst","urlvideo":"http://www.youtube.com/embed/RfjkTGbovt0","urlsound":"19_Punkt19_VO.mp3","urltext":"vh_19.txt","picture":"vh-popup-19.png","till_bild":"19.jpg","till_misc":"Cykelställ >200 meter.","till_park":">200 meter.","till_hcp":">200 meter.","till_buss":">200 meter. Turning Torso, linje 2."}},{"type":"Feature","id":"POI_VHAMN_PT.10","geometry":{"type":"Point","coordinates":[12.97267049740418,55.61185488753799]},"geometry_name":"the_geom","properties":{"gid":10,"id":20,"namn":"Det gröna","urlvideo":"http://www.youtube.com/embed/5LYTo","urlsound":"20_Punkt20_VO.mp3","urltext":"vh_20.txt","picture":"vh-popup-20.png","till_bild":"20.jpg","till_misc":"Cykelställ >200 meter, sittmöjlighet finns.","till_park":">200 meter.","till_hcp":">200 meter.","till_buss":">200 meter. Turning Torso, linje 2."}}],"crs":{"type":"EPSG","properties":{"code":"4326"}}}